stop_id,stop_code,stop_name,stop_lat,stop_lon,location_type
100-02,02,Czosnów Bella 02,52.3863681,20.7378464,0
100-01,01,Czosnów Bella 01,52.3858278,20.7378464,0
101-01,01,Czosnów 01,52.3901323,20.7331638,0
101-02,02,Czosnów 02,52.390499,20.7323887,0
102-01,01,Kaliszki Akacjowa 01,52.3719137,20.7330904,0
103-01,01,Adamówek Brzozowa I,52.366035,20.7303246,0
103-02,02,Adamówek Brzozowa II,52.36626,20.7203843,0
104-02,02,Trakt Partyzancki II,52.347172,20.7227183,0
104-01,01,Trakt Partyzancki I,52.3571178,20.7313942,0
104-04,04,Trakt Partyzancki IV,52.3406541,20.7018983,0
104-03,03,Trakt Partyzancki III,52.3459183,20.7185477,0
105-01,01,Truskawka Wolności I,52.3386557,20.6939163,0
105-02,02,Truskawka Wolności II,52.3321186,20.6831195,0
106-01,01,Wiersze Armii Krajowej 01,52.3273362,20.6646396,0
107-01,01,Wiersze Armii Krajowej-Kościół 01,52.326938,20.6519367,0
108-01,01,Krogulec-Straż 01,52.3216878,20.6405999,0
109-01,01,Krogulec 01,52.3257057,20.6239481,0
110-01,01,Kiścinne 01,52.3260877,20.6209641,0
110-02,02,Kiścinne 02,52.3260814,20.6207944,0
111-01,01,Aleksandrów 01,52.3393712,20.6361533,0
112-01,01,Brzozówka-Sklep 01,52.348011913596366,20.657669665627477,0
113-01,01,Sowia Wola Szmaragdowa 01,52.3674263,20.6424725,0
114-02,02,Sowia Wola Szkoła 02,52.3604075,20.6405368,0
114-01,01,Sowia Wola Szkoła 01,52.3607466,20.6421488,0
115-01,01,Małocice Wojska Polskiego 01,52.3740837,20.6900612,0
115-02,02,Małocice Wojska Polskiego 02,52.3743981,20.6924269,0
116-02,02,Małocice Szkoła 02,52.3735421,20.6806481,0
116-01,01,Małocice Szkoła 01,52.3732964,20.6794786,0
117-02,02,Wrzosówka 02,52.3722881,20.6645582,0
117-01,01,Wrzosówka 01,52.3723044,20.666366,0
118-01,01,Sowia Wola Szkolna 01,52.3639874,20.6533521,0
118-02,02,Sowia Wola Szkolna 02,52.364215,20.653623,0
119-01,01,Augustówek 01,52.3741743,20.6994039,0
119-02,02,Augustówek 02,52.3743823,20.6977355,0
120-02,02,Łosia Wólka 02,52.3738532,20.7063242,0
120-01,01,Łosia Wólka 01,52.3738041,20.7053948,0
121-01,01,Dębina 01,52.3920995,20.7150733,0
122-01,01,Kazuń Nowy Droga Krajowa 01,52.4213837,20.6874212,0
122-02,02,Kazuń Nowy Droga Krajowa 02,52.4209447,20.6866826,0
123-01,01,Kazuń-Bielany PAN (DW579) 01,52.4031892,20.6830169,0
123-02,02,Kazuń-Bielany PAN (DW579) 02,52.4037941,20.6852224,0
124-01,01,Kazuń Polski Droga Wojewódzka 01,52.3944216,20.6592134,0
124-02,02,Kazuń Polski Droga Wojewódzka 02,52.394491,20.6608702,0
125-01,01,Czeczotki-Sklep 01,52.3872631,20.6587116,0
126-01,01,Cybulice Partyzantów 01,52.3834561,20.649309,0
126-02,02,Cybulice Partyzantów 02,52.3835546,20.6502508,0
127-01,01,Cybulice Duże Spacerowa 01,52.3781431,20.6313151,0
128-01,01,Cybulice Małe Spacerowa 01,52.3811189,20.6402326,0
129-01,01,Cybulice Małe Droga Wojewódzka 01,52.3909994,20.6384266,0
129-02,02,Cybulice Małe Droga Wojewódzka 02,52.3916725,20.6398925,0
130-01,01,Cybulice Małe Kwiatowa 01,52.3893865,20.6312629,0
131-01,01,Kazuń-Bielany Sosnowa 01,52.393984,20.6583835,0
132-01,01,Kazuń Polski Leśna-OSP 01,52.3976281,20.6613253,0
133-01,01,Kazuń Polski Długa 01,52.4011756,20.6655731,0
134-01,01,Kazuń-Bielany Kościół 01,52.4074193,20.6805564,0
135-01,01,Kazuń-Bielany Jeziorna 01,52.4119264,20.6743849,0
136-01,01,Kazuń-Bielany Akacjowa 01,52.401857,20.6763441,0
136-02,02,Kazuń-Bielany Akacjowa 02,52.4011943,20.6765015,0
137-01,01,Kazuń Nowy Ordona 01,52.4080098,20.6925529,0
137-02,02,Kazuń Nowy Ordona 02,52.4086425,20.693897,0
138-02,02,Nowy Dwór Mazowiecki Paderewskiego 02,52.4280157,20.7193023,0
138-01,01,Nowy Dwór Mazowiecki Paderewskiego 01,52.4279884,20.7192003,0
139-02,02,Nowy Dwór Mazowiecki Akacjowa 02,52.4229652,20.7261966,0
139-01,01,Nowy Dwór Mazowiecki Akacjowa 01,52.422893,20.7260256,0
140-02,02,Nowy Dwór Mazowiecki Urząd Miasta 02,52.4303482,20.7094452,0
140-03,03,Nowy Dwór Mazowiecki Urząd Miasta 03,52.4304684,20.7094533,0
141-01,01,Palmiry Parking Leśny 01,52.3645939,20.7762809,0
142-01,01,Palmiry 01,52.3664586,20.7780477,0
142-02,02,Palmiry 02,52.3666273,20.7779672,0
143-03,03,Palmiry Kusocińskiego 03,52.3740912,20.7816134,0
143-04,04,Palmiry Kusocińskiego 04,52.3738914,20.7813157,0
144-02,02,Łomna-Kościół 02,52.379274,20.7839471,0
144-01,01,Łomna-Kościół 01,52.3797062,20.7843038,0
145-01,01,Łomna-Szkoła 01,52.3824376,20.777292,0
145-02,02,Łomna-Szkoła 02,52.3828141,20.7765222,0
146-02,02,Łomna-Zachód 02,52.385374,20.7691163,0
146-01,01,Łomna-Zachód 01,52.3851154,20.7694757,0
147-02,02,Cząstków Polski Wschód 02,52.3877661,20.7620579,0
147-01,01,Cząstków Polski Wschód 01,52.3876809,20.7619721,0
148-01,01,Cząstków Polski 01,52.3897825,20.7549449,0
148-02,02,Cząstków Polski 02,52.3901099,20.753982,0
149-01,01,Cząstków Mazowiecki 01,52.3914454,20.7432073,0
149-02,02,Cząstków Mazowiecki 02,52.3913898,20.7421988,0
150-01,01,Brzozówka 01,52.34919793464463,20.66018141309298,0
151-01,01,Sady 01,52.4238974,20.6619932,0
152-01,01,Łomna-Wschód 01,52.3804591,20.7831012,0
152-02,02,Łomna-Wschód 02,52.3807879,20.7825347,0
200-01,01,Kazuń Nowy-Jednostka 01,52.4221428,20.6824106,0
300-01,01,Cybulice Małe Wesoła 01,52.391206,20.638198,0
400-01,01,Kazuń Polski Polna 01,52.410881,20.6722638,0
500-01,01,Kazuń-Bielany Działkowa (DW579) 01,52.392381564149204,20.676965110514686,0
500-02,02,Kazuń-Bielany Działkowa (DW579) 02,52.392422146276466,20.6765665000252670,0